,City,Cloudiness,Country,Date,Humidity,Lat,Lng,Max Temp,Wind Speed
0,Saint George,75,GR,1556927400,76,39.45,22.34,53.6,4.14
1,Rikitea,27,PF,1556931367,73,-23.12,-134.97,77.04,20.04
2,Vaini,100,IN,1556928000,94,15.34,74.49,68.0,5.82
3,Cape Town,0,ZA,1556931066,87,-33.93,18.42,57.99,4.7
4,Provideniya,100,RU,1556931367,97,64.42,-173.23,31.0,2.28
5,Mineiros,97,BR,1556931127,88,-17.57,-52.55,70.76,2.93
6,Bredasdorp,63,ZA,1556928000,81,-34.53,20.04,51.8,5.82
7,Atuona,0,PF,1556931368,77,-9.8,-139.03,83.99,16.51
8,Ngunguru,0,NZ,1556929984,73,-35.62,174.5,66.0,4.0
9,Puerto Baquerizo Moreno,75,EC,1556928000,83,-0.9,-89.6,80.6,10.29
10,Busselton,61,AU,1556931277,64,-33.64,115.35,64.0,26.57
11,Tacuarembo,12,UY,1556931369,94,-31.73,-55.98,64.46,6.91
12,Komsomolskiy,89,RU,1556931369,89,67.55,63.78,30.51,15.1
13,Hambantota,40,LK,1556928600,100,6.12,81.12,77.0,2.24
14,Hilo,90,US,1556931324,65,19.71,-155.08,79.0,13.87
15,Narayangarh,53,IN,1556931369,33,24.28,75.06,82.4,3.27
16,Clyde River,90,CA,1556929320,100,70.47,-68.59,21.2,11.41
17,Kavieng,100,PG,1556931370,83,-2.57,150.8,81.63,17.81
18,Amapa,75,HN,1556931600,70,15.09,-87.97,84.2,5.82
19,Frontera,5,MX,1556926980,52,18.53,-92.64,93.2,13.62
20,Ushuaia,0,AR,1556928000,69,-54.81,-68.31,35.6,9.17
21,San Andres,24,PH,1556931370,71,13.32,122.68,84.62,1.01
22,Tuktoyaktuk,5,CA,1556928000,79,69.44,-133.03,24.8,17.22
23,Lichinga,3,MZ,1556931371,81,-13.3,35.25,67.75,4.94
24,Kaitangata,100,NZ,1556931371,68,-46.28,169.85,59.06,5.79
25,Hobart,75,AU,1556931255,71,-42.88,147.33,60.01,10.29
26,Berlevag,71,NO,1556931371,65,70.86,29.09,29.74,3.2
27,Luderitz,0,NA,1556928000,82,-26.65,15.16,59.0,11.41
28,Henties Bay,0,NA,1556928128,93,-22.12,14.28,55.0,1.99
29,Hermanus,64,ZA,1556930787,70,-34.42,19.24,57.0,1.99
30,Punta Arenas,0,CL,1556931186,76,-53.16,-70.91,32.0,5.82
31,Sept-Iles,75,CA,1556930786,69,50.2,-66.38,39.99,4.7
32,Port Alfred,26,ZA,1556931160,82,-33.59,26.89,62.01,4.0
33,Praia da Vitoria,40,PT,1556930740,88,38.73,-27.07,62.6,8.34
34,Langsa,100,ID,1556931373,89,4.47,97.97,71.84,2.95
35,Hasaki,40,JP,1556931213,68,35.73,140.83,70.0,10.29
36,Grindavik,75,IS,1556930977,86,63.84,-22.43,43.0,9.17
37,Mahebourg,75,MU,1556931241,83,-20.41,57.7,73.4,14.99
38,Thompson,90,CA,1556928000,79,55.74,-97.86,32.0,6.93
39,Esperance,20,TT,1556931306,88,10.24,-61.45,80.01,10.29
40,Yuyao,0,CN,1556931335,55,30.04,121.15,72.0,2.24
41,Touros,20,BR,1556931600,88,-5.2,-35.46,77.0,4.7
42,Husavik,61,CA,1556931374,53,50.56,-96.99,55.99,7.0
43,Sambava,14,MG,1556931374,99,-14.27,50.17,67.45,3.69
44,Tiksi,13,RU,1556931374,81,71.64,128.87,12.85,19.22
45,Kaeo,5,NZ,1556931329,85,-35.1,173.78,72.0,8.08
46,Severo-Kurilsk,91,RU,1556931375,77,50.68,156.12,37.31,13.6
47,Bambanglipuro,3,ID,1556931375,79,-7.95,110.28,80.96,7.61
48,Tarko-Sale,99,RU,1556931330,87,64.92,77.78,37.99,1.01
49,Puerto Ayora,20,EC,1556930747,83,-0.74,-90.35,80.6,13.87
50,Margate,75,AU,1556931255,71,-43.03,147.26,60.01,10.29
51,Zhob,13,PK,1556931375,36,31.34,69.45,60.25,1.7
52,Matara,15,PE,1556931376,80,-13.74,-72.9,39.17,4.9
53,Nipawin,90,CA,1556928660,63,53.36,-104.02,35.6,14.99
54,Ribeira Grande,75,PT,1556928000,88,38.52,-28.7,62.6,6.93
55,Bathsheba,40,BB,1556928000,74,13.22,-59.52,80.6,20.8
56,Samarinda,32,ID,1556931128,79,-0.5,117.14,82.17,1.57
57,Haines Junction,62,CA,1556931376,49,60.75,-137.51,43.56,3.69
58,Atar,53,MR,1556931376,13,20.52,-13.05,82.89,8.28
59,Solginskiy,9,RU,1556931377,77,61.05,41.34,32.49,8.39
60,Mar del Plata,100,AR,1556931220,54,-46.43,-67.52,41.42,13.47
61,Temerin,0,RS,1556931182,100,45.41,19.89,52.0,1.12
62,Chuy,14,UY,1556931140,81,-33.69,-53.46,66.49,5.48
63,Boguchany,42,RU,1556931377,68,58.38,97.46,39.67,4.47
64,College,90,US,1556931320,60,64.86,-147.8,44.01,9.17
65,Hithadhoo,100,MV,1556931378,77,-0.6,73.08,84.44,8.21
66,Barrow,33,AR,1556931378,69,-38.31,-60.23,51.26,5.95
67,Enshi,100,CN,1556931378,72,30.29,109.48,57.58,2.44
68,Oswego,90,US,1556931191,87,37.17,-95.11,60.8,6.4
69,Kapaa,90,US,1556931205,61,22.08,-159.32,82.4,17.22
70,Ishigaki,20,JP,1556928000,57,24.34,124.16,77.0,16.11
71,Yellowknife,20,CA,1556931360,54,62.45,-114.38,32.0,8.05
72,Keti Bandar,0,PK,1556931379,79,24.14,67.45,81.34,12.41
73,Kasempa,0,ZM,1556931379,79,-13.46,25.83,60.68,4.43
74,Hervey Bay,90,AU,1556930708,83,-25.3,152.85,75.0,5.82
75,Corinto,100,BR,1556931379,85,-18.36,-44.46,72.36,3.04
76,Owerri,75,NG,1556928000,94,5.49,7.03,75.2,3.36
77,Waipawa,4,NZ,1556931137,63,-39.94,176.59,64.99,3.0
78,Sorland,100,NO,1556931380,70,67.67,12.69,37.62,20.36
79,Lysyye Gory,0,RU,1556931380,89,51.55,44.84,47.93,7.92
80,Dingle,60,PH,1556931381,62,11.0,122.67,85.32,3.91
81,Pevek,0,RU,1556931381,80,69.7,170.27,30.08,1.28
82,Laguna,75,MX,1556927220,11,27.52,-110.01,89.6,11.41
83,Jamestown,4,AU,1556931381,78,-33.21,138.6,57.04,5.77
84,Kodiak,1,US,1556931290,22,39.95,-94.76,59.0,6.93
85,New Norfolk,75,AU,1556931375,71,-42.78,147.06,60.01,10.29
86,Pisco,0,PE,1556930798,77,-13.71,-76.2,69.8,6.93
87,Mlimba,94,TZ,1556931382,96,-8.78,35.81,66.08,1.97
88,Mataura,100,NZ,1556931006,58,-46.19,168.86,66.0,14.0
89,Lompoc,1,US,1556931329,46,34.64,-120.46,71.6,13.87
90,Itoman,75,JP,1556931186,44,26.12,127.67,75.2,11.41
91,Tamiahua,56,MX,1556931383,91,21.28,-97.45,78.28,10.76
92,Maniitsoq,2,GL,1556931289,42,65.42,-52.9,47.5,9.8
93,Yar-Sale,99,RU,1556931383,98,66.83,70.83,29.12,8.43
94,Nelson Bay,90,AU,1556931046,77,-32.72,152.14,64.99,6.93
95,Nizhniy Kuranakh,97,RU,1556931383,63,58.84,125.49,33.62,9.95
96,Kalmunai,100,LK,1556931384,87,7.42,81.82,76.9,2.91
97,Takoradi,100,GH,1556931384,91,4.89,-1.75,77.92,3.62
98,Algiers,75,US,1556931372,74,29.94,-90.04,80.01,8.05
99,Port Elizabeth,90,US,1556931368,100,39.31,-74.98,66.2,4.7
100,Katsuura,20,JP,1556929704,63,33.93,134.5,69.8,11.41
101,Fortuna,0,ES,1556931372,76,38.18,-1.13,57.99,8.05
102,Ostrovnoy,100,RU,1556931385,97,68.05,39.51,28.89,13.76
103,Yar,100,RU,1556931385,96,58.24,52.11,50.62,8.03
104,Norsup,20,VU,1556928000,65,-16.07,167.38,82.4,12.75
105,Nampula,75,MZ,1556928000,100,-15.12,39.26,69.8,2.28
106,Vyshkov,90,RU,1556928000,93,52.48,31.69,48.2,2.24
107,Alice Springs,0,AU,1556928000,42,-23.7,133.88,62.6,11.41
108,Yarmouth,60,GB,1556931364,75,50.71,-1.5,46.99,9.17
109,Katangli,88,RU,1556931386,73,51.71,143.23,43.47,1.86
110,Bilma,1,NE,1556931386,9,18.69,12.92,82.13,3.42
111,East London,99,ZA,1556931386,72,-33.02,27.91,59.47,9.91
112,Xam Nua,91,LA,1556931385,96,20.42,104.04,69.25,2.21
113,Saint-Philippe,90,CA,1556931334,100,45.36,-73.48,50.0,5.82
114,Condado,40,BR,1556931600,69,-7.59,-35.1,82.4,11.41
115,Purpe,92,RU,1556931330,87,64.48,76.69,37.99,1.01
116,Havoysund,97,NO,1556929200,92,71.0,24.66,24.8,10.4
117,Broken Hill,75,AU,1556928000,76,-31.97,141.45,57.2,18.34
118,Matamoros,1,US,1556931321,65,25.87,-97.51,82.4,10.29
119,Gambela,70,ET,1556931387,47,8.25,34.59,76.25,4.59
120,Erdenet,3,MN,1556931388,53,49.03,104.04,29.41,7.07
121,Vila Franca do Campo,75,PT,1556929800,93,37.72,-25.43,62.6,13.87
122,Caravelas,42,BR,1556931388,85,-17.73,-39.27,78.19,5.1
123,Hailar,100,CN,1556931388,35,49.2,119.7,47.68,21.45
124,Marquette,20,US,1556931012,45,46.54,-87.4,46.4,8.05
125,Barcelona,20,ES,1556931103,93,41.38,2.18,55.0,8.05
126,Saskylakh,12,RU,1556931389,93,71.97,114.09,8.57,5.95
127,La Ronge,75,CA,1556928000,48,55.1,-105.3,39.2,8.05
128,Saposoa,40,PE,1556928000,290,-6.93,-76.77,62.6,6.93
129,Panama City,1,US,1556931039,78,30.16,-85.65,79.0,6.93
130,Tasiilaq,62,GL,1556931389,86,65.61,-37.64,22.12,3.2
131,Najran,0,SA,1556928000,26,17.54,44.22,80.6,4.7
132,Saint-Joseph,0,FR,1556931036,93,43.56,6.97,55.99,3.36
133,Shahr-e Babak,0,IR,1556931390,19,30.12,55.12,67.81,7.18
134,Bobrovka,0,RU,1556931390,92,52.3,45.54,46.12,7.87
135,Stettler,100,CA,1556930706,72,52.32,-112.71,37.0,15.99
136,Qaanaaq,99,GL,1556931390,87,77.48,-69.36,24.62,3.22
137,Dikson,11,RU,1556931391,93,73.51,80.55,6.97,5.77
138,Albany,90,US,1556931304,87,42.65,-73.75,57.2,8.05
139,Brejo da Madre de Deus,0,BR,1556931391,96,-8.14,-36.37,66.19,7.11
140,Barabai,53,ID,1556931391,80,-2.59,115.38,80.57,0.94
141,Eureka,1,US,1556931332,71,40.8,-124.16,62.01,14.99
142,Saldanha,16,PT,1556931392,62,41.42,-6.55,51.88,7.07
143,Gorahun,100,LR,1556931392,95,8.17,-10.34,75.08,2.55
144,Pedernales,23,EC,1556931392,83,0.07,-80.05,80.03,12.08
145,Boundiali,92,CI,1556931392,75,9.53,-6.48,80.39,6.06
146,Lac-Megantic,90,CA,1556931303,100,45.58,-70.88,48.2,2.24
147,Arraial do Cabo,81,BR,1556931174,86,-22.97,-42.02,78.35,14.12
148,Longyearbyen,40,NO,1556931000,72,78.22,15.63,15.8,23.04
149,San Vicente,20,SV,1556931000,79,13.64,-88.78,84.2,6.93
150,Ouesso,100,CG,1556931394,89,1.61,16.05,75.49,1.19
151,Nikolskoye,75,RU,1556931338,59,59.7,30.79,37.0,8.95
152,Pak Phanang,20,TH,1556928000,88,8.35,100.2,80.6,2.24
153,Muros,0,ES,1556931390,87,42.77,-9.06,57.0,5.82
154,Ilulissat,55,GL,1556927400,39,69.22,-51.1,48.2,21.92
155,Laje,1,BR,1556931395,98,-13.18,-39.42,70.16,4.09
156,Novyy Urengoy,95,RU,1556931395,97,66.08,76.63,30.01,5.86
157,Hofn,0,IS,1556931395,53,64.25,-15.21,22.95,7.49
158,Zunyi,28,CN,1556931395,77,27.73,106.92,58.09,3.65
159,Barra,76,BR,1556931395,64,-11.09,-43.14,76.73,0.47
160,Faanui,84,PF,1556931395,72,-16.48,-151.75,82.13,14.27
161,Kungurtug,1,RU,1556931396,57,50.6,97.53,31.0,0.76
162,Boyolangu,12,ID,1556931396,86,-8.09,111.9,74.74,4.03
163,Butaritari,100,KI,1556931396,77,3.07,172.79,83.25,13.56
164,Cabo San Lucas,75,MX,1556931024,41,22.89,-109.91,84.0,14.23
165,Bereda,3,ES,1556931238,87,43.27,-7.54,50.0,3.36
166,Vestmanna,77,FO,1556931000,69,62.16,-7.17,35.6,19.46
167,Aykhal,90,RU,1556928000,68,65.95,111.51,28.4,8.95
168,Bluff,100,AU,1556931397,76,-23.58,149.07,71.05,5.37
169,Chokurdakh,99,RU,1556931397,91,70.62,147.9,28.78,6.89
170,Price,1,US,1556931267,18,39.6,-110.81,62.6,12.75
171,Doha,0,QA,1556928000,54,25.29,51.53,82.4,3.36
172,Haukipudas,100,FI,1556930797,68,65.17,25.5,30.2,9.17
173,Pinhao,100,BR,1556931398,95,-25.7,-51.66,64.21,2.06
174,Bozoum,100,CF,1556931398,86,6.31,16.38,72.32,3.33
175,Zhuanghe,100,CN,1556931398,34,39.7,122.97,67.37,4.52
176,Havre,90,US,1556930790,39,48.55,-109.68,62.6,9.17
177,Cayenne,89,GF,1556928000,78,4.94,-52.33,82.4,10.29
178,Anori,80,BR,1556931399,97,-3.74,-61.66,75.37,1.5
179,Sao Filipe,4,CV,1556931399,79,14.9,-24.5,72.31,15.61
180,Victoria,75,BN,1556928000,88,5.28,115.24,82.4,2.24
181,Preobrazheniye,0,RU,1556931400,26,42.9,133.91,65.81,4.05
182,Tuatapere,99,NZ,1556931006,58,-46.13,167.69,66.0,14.0
183,Linxia,62,CN,1556931400,58,35.6,103.21,53.59,3.98
184,Soyaux,60,FR,1556931332,93,45.64,0.19,45.0,1.12
185,Georgetown,40,GY,1556928000,78,6.8,-58.16,80.6,11.41
186,Wajir,23,KE,1556931401,73,1.75,40.07,79.18,14.36
187,Garoua Boulai,100,CM,1556931401,94,5.88,14.55,69.52,1.97
188,Willowmore,74,ZA,1556931401,84,-33.3,23.49,50.83,6.67
189,Ca Mau,56,VN,1556931401,69,9.18,105.15,86.13,3.53
190,Beringovskiy,59,RU,1556931402,61,63.05,179.32,34.94,7.54
191,Charyshskoye,0,RU,1556931402,63,51.4,83.56,34.83,3.53
192,Omboue,100,GA,1556931402,85,-1.57,9.26,81.99,9.42
193,Nouakchott,0,MR,1556929800,82,18.08,-15.98,66.2,10.29
194,Kapit,74,MY,1556931402,84,2.02,112.94,79.63,1.03
195,Kavaratti,96,IN,1556931403,61,10.57,72.64,85.21,9.35
196,Nuevo Progreso,1,US,1556931402,65,26.05,-97.95,84.2,10.29
197,Talnakh,0,RU,1556928000,71,69.49,88.39,8.6,4.47
198,Brawley,20,US,1556927760,8,32.98,-115.53,93.2,5.82
199,Dezhou,100,CN,1556931403,31,37.45,116.31,69.46,13.76
200,Jumla,0,NP,1556931403,47,29.28,82.18,36.54,5.7
201,Kirsanov,0,RU,1556931404,86,52.65,42.73,47.03,7.34
202,Tura,92,IN,1556931404,81,25.52,90.21,76.0,10.22
203,San Cristobal,75,EC,1556930731,52,-0.39,-78.55,64.4,14.99
204,Avarua,100,CK,1556929800,74,-21.21,-159.78,82.4,17.22
205,Soresina,75,IT,1556931367,93,45.29,9.86,55.4,2.24
206,Vila Velha,20,BR,1556931600,83,-3.71,-38.6,80.6,4.7
207,Unai,100,BR,1556931405,86,-16.36,-46.91,70.99,2.21
208,Russell,0,AR,1556928000,68,-33.01,-68.8,66.2,3.36
209,Itarema,52,BR,1556931405,85,-2.92,-39.92,78.64,7.29
210,Kendari,87,ID,1556931406,83,-3.99,122.52,79.87,2.39
211,Chufarovo,56,RU,1556931406,91,54.09,47.33,45.67,6.8
212,Atambua,77,ID,1556931406,71,-9.11,124.89,82.89,6.53
213,Koumac,0,NC,1556931406,59,-20.56,164.28,78.17,9.89
214,Khatanga,54,RU,1556931406,91,71.98,102.47,15.34,3.78
215,Norman Wells,20,CA,1556928000,53,65.28,-126.83,24.8,6.93
216,Paciran,16,ID,1556931406,84,-6.9,112.33,77.15,4.92
217,Ahipara,0,NZ,1556931329,85,-35.17,173.16,72.0,8.3
218,Faya,40,SA,1556928000,35,18.39,42.45,69.8,4.7
219,Leningradskiy,14,RU,1556931407,82,69.38,178.42,30.51,8.48
220,Wanaka,100,NZ,1556931407,74,-44.7,169.14,53.1,9.15
221,Basco,90,US,1556931316,76,40.33,-91.2,55.0,3.36
222,Kudahuvadhoo,100,MV,1556931408,77,2.67,72.89,84.44,11.48
223,Lebu,20,ET,1556928000,41,8.96,38.73,60.8,2.24
224,Gorontalo,12,ID,1556931135,66,0.54,123.06,84.46,1.63
225,Narsaq,100,GL,1556931408,48,60.91,-46.05,47.0,6.69
226,Estelle,5,US,1556931394,64,32.87,-97.01,73.99,9.17
227,Aripuana,99,BR,1556931383,97,-9.17,-60.63,74.75,0.72
228,Nhulunbuy,40,AU,1556928000,70,-12.18,136.78,84.2,16.11
229,Tynda,71,RU,1556931409,41,55.15,124.74,33.37,10.58
230,Shache,1,CN,1556931409,19,38.42,77.24,59.11,1.79
231,Bosanska Krupa,82,BA,1556931409,92,44.88,16.15,49.73,3.76
232,Moose Factory,90,CA,1556928000,55,51.26,-80.61,37.4,6.93
233,Kang,0,BW,1556931409,24,-23.67,22.79,63.85,5.95
234,Mount Gambier,90,AU,1556928000,71,-37.83,140.78,53.6,11.41
235,Kieta,90,PG,1556931410,60,-6.22,155.63,88.0,3.04
236,Castro,90,CL,1556928000,100,-42.48,-73.76,51.8,4.7
237,Luanda,75,AO,1556928000,83,-8.83,13.24,78.8,9.17
238,Alfenas,92,BR,1556931115,93,-21.43,-45.95,66.31,0.87
239,Chandla,5,IN,1556931411,47,25.06,80.17,87.68,4.74
240,Silifke,0,TR,1556931411,41,36.38,33.93,56.18,7.56
241,Hays,1,US,1556930792,59,38.88,-99.33,64.99,6.93
242,Airai,78,TL,1556931411,67,-8.93,125.41,81.27,3.13
243,Kununurra,58,AU,1556928000,55,-15.77,128.74,87.8,10.29
244,Talaya,0,RU,1556931323,48,55.79,84.89,42.01,4.47
245,Poya,0,NC,1556931412,58,-21.35,165.16,77.65,11.05
246,Acapulco,40,MX,1556927100,83,16.86,-99.88,80.6,8.05
247,Cidreira,97,BR,1556931412,90,-30.17,-50.22,72.95,4.94
248,Cukai,75,MY,1556928000,94,4.25,103.42,80.6,1.41
249,Xining,89,CN,1556931412,68,36.62,101.77,45.92,4.38
250,Miyako,0,JP,1556931325,33,33.63,130.94,79.0,6.93
251,Valleyview,100,CA,1556931413,45,55.07,-117.28,34.11,4.72
252,San Francisco,1,US,1556931199,82,37.78,-122.42,73.4,12.75
253,Dromolaxia,0,CY,1556930792,77,34.88,33.59,60.8,2.24
254,Necochea,17,AR,1556930204,78,-38.55,-58.74,55.99,1.01
255,Pangai,75,TO,1556928000,65,-19.8,-174.35,78.8,18.34
256,Methoni,20,GR,1556931348,87,36.82,21.7,60.01,3.09
257,Tupelo,1,US,1556931179,100,34.26,-88.7,75.2,1.74
258,Karratha,5,AU,1556931414,24,-20.74,116.85,80.87,11.23
259,Midland,24,US,1556930100,56,32.0,-102.08,75.2,12.75
260,Mendoza,0,AR,1556928000,68,-32.89,-68.84,66.2,3.36
261,Balkanabat,87,TM,1556931414,32,39.51,54.36,78.01,9.06
262,Port Hardy,40,CA,1556928000,62,50.7,-127.42,55.4,17.22
263,Sisimiut,7,GL,1556931220,71,66.94,-53.67,38.9,13.11
264,Chumikan,100,RU,1556931415,91,54.72,135.31,35.19,6.76
265,Anahuac,75,US,1556931230,83,29.77,-94.68,78.01,9.17
266,Baykit,99,RU,1556931415,89,61.68,96.39,34.45,9.86
267,Chandia,71,IN,1556931308,49,23.65,80.7,82.6,9.01
268,Vardo,75,US,1556931289,93,39.62,-77.74,70.0,9.17
269,Jutai,46,BR,1556931415,99,-1.71,-47.89,74.77,2.66
270,Urengoy,94,RU,1556931415,98,65.96,78.37,33.75,4.7
271,Jijiang,0,CN,1556929839,42,29.8,120.61,69.01,2.24
272,Soe,20,EE,1556931369,95,57.91,26.05,32.0,8.05
273,Leninskoye,21,RU,1556929800,64,54.82,82.85,37.4,2.24
274,Tomohon,20,ID,1556929800,59,1.33,124.84,91.4,1.12
275,Soma,20,JP,1556930835,44,37.8,140.92,70.0,4.7
276,Okakarara,0,NA,1556931416,25,-20.59,17.46,58.99,6.15
277,Ampanihy,0,MG,1556931417,58,-24.69,44.75,72.04,5.93
278,Kruisfontein,55,ZA,1556931417,86,-34.0,24.73,54.4,8.37
279,Brae,81,GB,1556929200,86,60.4,-1.35,39.2,18.34
280,Ponta do Sol,100,BR,1556931417,93,-20.63,-46.0,66.89,2.44
281,Nichinan,0,JP,1556930923,56,31.65,131.31,71.01,4.7
282,Payo,54,ID,1556931418,89,-3.75,103.64,73.96,2.24
283,Ust-Omchug,98,RU,1556931418,92,61.13,149.63,33.1,2.39
284,Jaguarari,1,BR,1556931306,85,-10.26,-40.2,69.39,5.91
285,Canutama,85,BR,1556931242,97,-6.53,-64.38,75.58,1.86
286,Savelugu,77,GH,1556931418,45,9.63,-0.83,92.7,12.35
287,Codrington,75,AU,1556931068,83,-28.95,153.24,73.4,7.0
288,Krasnovishersk,100,RU,1556931418,94,60.4,57.08,48.42,8.77
289,Hamilton,75,BM,1556927700,73,32.3,-64.78,71.6,4.7
290,Salamanca,0,ES,1556930510,70,40.97,-5.66,48.99,12.75
291,George,75,NG,1556928000,100,6.63,3.35,73.4,2.24
292,Bezhetsk,25,RU,1556931419,72,57.78,36.69,33.52,6.04
293,Erzin,0,TR,1556929200,87,36.95,36.2,61.0,3.36
294,Nome,75,US,1556931410,83,30.04,-94.42,77.0,9.17
295,Batagay-Alyta,44,RU,1556931420,75,67.8,130.41,19.37,2.84
296,Tual,100,ID,1556931420,83,-5.67,132.75,80.21,3.69
297,Tabory,95,PL,1556931367,85,53.89,19.53,42.01,6.89
298,Solton,0,RU,1556931420,50,52.84,86.48,34.63,6.15
299,Serenje,9,ZM,1556931421,98,-13.23,30.22,58.01,3.65
300,Zyryanovsk,22,KZ,1556931421,55,49.74,84.27,37.04,5.59
301,Tiarei,40,PF,1556931182,58,-17.53,-149.33,84.2,5.82
302,Isangel,75,VU,1556928000,69,-19.55,169.27,78.8,17.22
303,Aklavik,20,CA,1556928000,50,68.22,-135.01,30.2,10.29
304,Fuxin,36,CN,1556931422,23,42.02,121.65,71.8,13.31
305,Guerrero Negro,17,MX,1556931422,83,27.97,-114.04,61.94,12.64
306,Alugan,52,PH,1556931422,66,12.22,125.48,84.65,3.29
307,Shimoda,75,JP,1556930585,82,34.7,138.93,68.0,10.29
308,Okoneshnikovo,100,RU,1556931422,38,54.84,75.08,49.1,12.21
309,Puerto Escondido,5,MX,1556927100,66,15.86,-97.07,86.0,11.41
310,Marawi,9,PH,1556930829,67,8.0,124.29,82.99,5.01
311,Carnarvon,0,ZA,1556931423,49,-30.97,22.13,54.92,7.4
312,Usakos,0,NA,1556931423,28,-22.0,15.59,71.6,3.96
313,Richards Bay,84,ZA,1556931423,78,-28.77,32.06,76.18,19.33
314,Batsfjord,92,NO,1556931423,65,70.63,29.72,30.17,3.31
315,Egvekinot,100,RU,1556931423,82,66.32,-179.17,27.56,13.85
316,Narwar,36,IN,1556931424,28,25.64,77.91,85.55,3.62
317,Santa Isabel do Rio Negro,100,BR,1556931424,90,-0.41,-65.02,77.26,1.9
318,Katobu,100,ID,1556931424,79,-4.94,122.53,83.0,0.72
319,Banda Aceh,49,ID,1556931248,74,5.56,95.32,84.96,8.9
320,Raigarh,100,IN,1556931424,61,21.9,83.39,79.25,1.7
321,Jinchang,96,CN,1556931424,56,38.52,102.19,54.25,7.11
322,Newton,1,US,1556931405,62,41.7,-93.05,60.01,5.82
323,Sao Joao da Barra,88,BR,1556931425,96,-21.64,-41.05,73.04,4.36
324,Patea,74,NZ,1556931014,62,-39.76,174.48,64.99,14.7
325,Itaituba,72,BR,1556931425,97,-4.26,-55.99,75.33,0.96
326,Karasjok,95,NO,1556929200,68,69.47,25.52,26.6,13.87
327,Erenhot,70,CN,1556931426,39,43.65,111.97,58.91,24.4
328,Bethel,90,US,1556930220,93,60.79,-161.76,44.6,17.22
329,Oksfjord,94,NO,1556931307,92,70.24,22.35,27.0,14.41
330,Bayanday,0,RU,1556931427,38,53.07,105.52,33.73,3.27
331,Eldama Ravine,0,KE,1556928000,72,0.05,35.72,62.6,9.17
332,Boca do Acre,91,BR,1556931427,97,-8.76,-67.39,75.56,2.17
333,Caborca,0,MX,1556931195,13,30.58,-111.1,90.0,1.99
334,Teahupoo,40,PF,1556931182,58,-17.83,-149.27,84.2,5.82
335,Aquiraz,0,BR,1556930891,83,-3.9,-38.39,80.6,5.82
336,Bambous Virieux,75,MU,1556931241,83,-20.34,57.76,73.4,14.99
337,Hualmay,4,PE,1556931428,92,-11.1,-77.61,65.0,14.03
338,Lavrentiya,100,RU,1556931428,95,65.58,-170.99,28.12,5.08
339,Byron Bay,100,AU,1556931068,83,-28.65,153.62,73.99,6.93
340,Awjilah,22,LY,1556931429,20,29.14,21.3,77.27,10.89
341,Broome,100,GB,1556931425,86,52.47,1.45,42.8,3.36
342,Barcelos,0,PT,1556931364,76,41.53,-8.62,64.0,3.36
343,Sitka,39,US,1556930752,80,37.17,-99.65,61.0,3.0
344,Gobabis,0,NA,1556928000,22,-22.45,18.97,57.2,1.12
345,Eyl,1,SO,1556931430,81,7.98,49.82,80.75,9.66
346,Mount Isa,75,AU,1556929800,53,-20.73,139.49,71.6,14.99
347,Qaqortoq,100,GL,1556931430,48,60.72,-46.03,47.0,6.69
348,High Level,75,CA,1556928000,31,58.52,-117.13,35.6,10.29
349,Comodoro Rivadavia,0,AR,1556928000,56,-45.87,-67.48,39.2,4.7
350,Almaznyy,0,RU,1556929800,87,48.03,40.04,51.8,8.95
351,Vazhiny,100,RU,1556931431,73,60.96,34.04,30.49,11.21
352,Padang,20,ID,1556929800,78,-0.92,100.36,82.4,4.7
353,Arica,0,CL,1556928000,68,-18.48,-70.32,66.2,3.36
354,Yulara,0,AU,1556928000,31,-25.24,130.99,64.4,16.11
355,La Romana,40,DO,1556928000,83,18.43,-68.97,78.8,9.91
356,Ancud,90,CL,1556928000,100,-41.87,-73.83,51.8,4.7
357,Okha,1,RU,1556931432,82,53.59,142.95,35.23,4.16
358,Ayan,0,TR,1556931432,84,40.67,33.6,36.47,2.01
359,Zabol,0,IR,1556928000,40,31.03,61.49,69.8,18.34
360,Walvis Bay,0,NA,1556928128,87,-22.95,14.51,55.4,2.24
361,Nanakuli,90,US,1556931185,74,21.39,-158.15,82.0,8.05
362,Upernavik,0,GL,1556931433,90,72.79,-56.15,28.6,13.47
363,Maamba,0,ZM,1556931433,59,-17.36,27.22,63.99,4.32
364,San Juan de Uraba,100,CO,1556931433,84,8.76,-76.53,84.28,16.42
365,Buala,66,SB,1556931433,75,-8.15,159.59,83.74,5.61
366,Taiyuan,5,CN,1556929800,59,37.86,112.56,64.4,4.47
367,Aden,0,YE,1556931434,37,12.79,45.03,86.94,6.82
368,Vestmannaeyjar,33,IS,1556931434,65,63.44,-20.27,40.95,6.85
369,Arlit,13,NE,1556931434,7,18.74,7.39,85.01,4.92
370,Shieli,0,KZ,1556931434,43,44.18,66.74,53.8,16.53
371,Taoudenni,32,ML,1556931434,11,22.68,-3.98,85.72,9.66
372,Quatre Cocos,75,MU,1556931241,83,-20.21,57.76,73.4,14.99
373,Kasongo-Lunda,100,CD,1556931435,85,-6.48,16.82,69.71,2.46
374,Poum,91,MK,1556931435,77,41.28,20.71,41.8,1.3
375,Selenduma,1,RU,1556931435,47,50.92,106.24,34.43,4.38
376,Lata,0,IN,1556931435,56,30.78,78.62,19.93,11.92
377,Winnemucca,1,US,1556930739,15,40.97,-117.74,71.6,6.93
378,Nuuk,13,GL,1556927400,45,64.17,-51.74,46.4,12.75
379,Koutsouras,0,GR,1556931388,87,35.03,25.95,55.99,1.99
380,Kriel,0,ZA,1556930790,84,-26.26,29.26,48.99,1.66
381,Gondanglegi,10,ID,1556931436,81,-7.75,112.01,76.88,3.47
382,Florence,90,US,1556931428,83,34.8,-87.68,73.0,2.68
383,Concepcion del Oro,100,MX,1556931437,18,24.63,-101.42,74.93,13.82
384,Havre-Saint-Pierre,90,CA,1556928000,69,50.23,-63.6,39.2,2.24
385,Mirnyy,35,RU,1556931437,82,56.57,36.46,35.98,5.19
386,Lagoa,0,PT,1556931102,93,37.14,-8.45,64.0,6.93
387,Port Moresby,75,PG,1556928000,88,-9.47,147.16,80.6,11.41
388,Constitucion,75,MX,1556930416,10,23.99,-104.67,78.8,20.8
389,Talaban,1,IQ,1556928000,40,35.38,44.92,89.6,10.74
390,Nhamunda,84,BR,1556931438,98,-2.19,-56.71,75.73,1.66
391,Abong Mbang,100,CM,1556931439,97,3.98,13.18,70.24,1.74
392,Kontagora,100,NG,1556931439,61,10.4,5.47,84.33,5.19
393,Los Llanos de Aridane,90,ES,1556931356,63,28.66,-17.92,64.4,10.29
394,Camacha,75,PT,1556929800,59,33.08,-16.33,62.6,10.29
395,Talara,1,PE,1556931439,88,-4.58,-81.27,72.27,17.49
396,Ludvika,91,SE,1556931306,100,60.15,15.18,32.0,4.7
397,Grakhovo,75,RU,1556929800,100,56.05,51.96,51.8,13.42
398,El Tigre,98,VE,1556931440,59,8.89,-64.25,83.38,14.41
399,Iqaluit,20,CA,1556931161,85,63.75,-68.52,19.4,16.11
400,Conde,1,BR,1556931440,95,-11.81,-37.61,73.35,2.19
401,Moerai,100,PF,1556931440,70,-22.43,-151.33,75.67,16.33
402,Meulaboh,43,ID,1556931441,85,4.14,96.13,81.56,6.96
403,Nouadhibou,0,MR,1556928000,82,20.93,-17.03,64.4,14.99
404,Gravdal,7,NO,1556931423,60,59.79,5.78,39.2,21.92
405,Thinadhoo,100,MV,1556931441,77,0.53,72.93,84.51,11.25
406,Fort-Shevchenko,15,KZ,1556931441,79,44.51,50.26,56.66,12.84
407,Montepuez,57,MZ,1556931441,98,-13.13,39.0,67.18,3.83
408,Cururupu,57,BR,1556931442,97,-1.82,-44.87,74.34,2.06
409,Cabedelo,0,BR,1556928000,88,-6.97,-34.84,77.0,4.7
410,Teknaf,99,BD,1556931442,85,20.86,92.31,83.92,25.5
411,Salobrena,36,ES,1556931429,72,36.74,-3.59,60.01,2.24
412,Kysyl-Syr,0,RU,1556931442,79,63.9,122.77,32.02,6.17
413,Pacific Grove,1,US,1556931426,37,36.62,-121.92,78.8,17.22
414,Saint-Pierre,40,FR,1556931425,93,48.95,4.24,50.0,6.93
415,Sandnessjoen,75,NO,1556929200,93,66.02,12.63,35.6,4.7
416,Pitimbu,0,BR,1556928000,88,-7.47,-34.81,77.0,4.7
417,Bermejo,0,AR,1556931443,93,-22.73,-64.34,65.93,1.81
418,Riosucio,40,CO,1556928000,69,5.42,-75.7,77.0,2.24
419,Orthez,75,FR,1556931304,93,43.49,-0.77,51.8,5.82
420,Avera,75,US,1556931414,74,33.19,-82.53,80.6,4.7
421,Huamachuco,100,PE,1556931444,91,-7.82,-78.05,51.73,3.31
422,Kaili,79,ID,1556931444,93,-3.46,120.21,65.48,0.92
423,Alofi,90,NU,1556928000,83,-19.06,-169.92,78.8,12.75
424,Fort Nelson,90,CA,1556930760,68,58.81,-122.69,28.4,6.93
425,Jalu,5,LY,1556931445,20,29.03,21.55,77.17,9.93
426,Salimpur,9,IN,1556931445,30,28.13,76.28,82.49,3.69
427,Huancavelica,100,PE,1556931445,90,-12.79,-74.97,37.96,4.7
428,Teguldet,54,RU,1556931445,55,57.31,88.17,38.83,5.7
429,Enumclaw,1,US,1556931384,48,47.2,-121.99,64.99,4.7
430,Upata,78,VE,1556931446,68,8.02,-62.41,78.66,5.95
431,Kanel,0,SN,1556931446,14,15.49,-13.18,90.56,10.87
432,Melioratorov,20,RU,1556929800,63,57.21,65.61,51.8,11.18
433,Vao,15,EE,1556931446,76,59.1,26.19,29.41,8.03
434,Yerbogachen,81,RU,1556931446,87,61.28,108.01,36.36,12.1
435,Samarai,100,PG,1556931446,94,-10.62,150.67,77.83,4.47
436,Nanortalik,86,GL,1556931447,63,60.14,-45.24,40.91,3.49
437,Road Town,40,VG,1556931274,69,18.42,-64.62,79.0,9.17
438,Ocampo,23,PH,1556931447,65,13.56,123.37,85.19,3.11
439,Bundaberg,90,AU,1556930708,83,-24.87,152.35,75.0,5.82
440,Lodja,35,CD,1556931447,77,-3.52,23.6,74.07,1.48
441,Cherskiy,95,RU,1556931447,100,68.75,161.3,32.87,1.77
442,Hispania,75,CO,1556931019,77,5.8,-75.91,66.2,2.24
443,Puerto Colombia,75,CO,1556930821,78,10.99,-74.96,82.4,14.99
444,Ucluelet,20,CA,1556931026,71,48.94,-125.55,63.0,9.17
445,San Policarpo,45,PH,1556931448,72,12.18,125.51,82.76,5.08
446,Nenjiang,100,CN,1556931448,27,49.17,125.23,47.54,15.28
447,Hauterive,90,FR,1556931425,81,46.09,3.45,46.4,3.36
448,Fuzhou,75,CN,1556928000,42,26.08,119.3,66.2,6.71
449,Helena,1,US,1556930759,17,46.59,-112.04,64.4,14.99
450,Muroto,20,JP,1556928000,49,33.37,134.14,69.8,3.36
451,Saint Anthony,1,US,1556931339,20,43.97,-111.68,62.6,11.41
452,Hobyo,0,SO,1556931450,73,5.35,48.53,83.56,16.02
453,Moroto,65,UG,1556931450,68,2.53,34.66,72.38,2.66
454,Viedma,58,AR,1556931450,60,-40.81,-62.99,48.8,3.89
455,Sroda Wielkopolska,0,PL,1556931425,60,52.23,17.28,45.0,4.7
456,Abu Dhabi,0,AE,1556928000,88,24.47,54.37,77.0,2.24
457,Pangnirtung,89,CA,1556931450,76,66.15,-65.72,27.54,3.38
458,Staritsa,15,RU,1556931451,81,56.51,34.93,33.32,4.43
459,Gazimurskiy Zavod,100,RU,1556931451,75,51.55,118.33,34.4,8.77
460,Portland,75,US,1556931405,45,45.52,-122.67,70.0,9.17
461,Kutum,10,SD,1556931451,9,14.2,24.66,78.16,4.61
462,Kanniyakumari,100,IN,1556931451,76,8.08,77.57,84.17,21.59
463,Seymchan,65,RU,1556931451,99,62.93,152.39,34.54,2.28
464,Inirida,62,CO,1556931452,88,3.87,-67.92,78.37,2.84
465,Naryan-Mar,100,RU,1556931452,99,67.67,53.09,35.55,13.51
466,Bonanza,93,NI,1556931452,89,14.03,-84.62,74.63,3.42
467,Shelby,90,US,1556931208,30,48.51,-111.86,61.0,16.11
468,Piranhas,100,BR,1556931452,89,-16.43,-51.82,71.39,2.82
469,Genhe,100,CN,1556931453,70,50.78,121.52,31.75,7.9
470,Neiafu,75,TO,1556931600,74,-18.65,-173.98,78.8,5.82
471,Bubaque,0,GW,1556931453,69,11.28,-15.83,78.21,20.78
472,Jales,100,BR,1556931304,84,-20.27,-50.55,76.05,1.48
473,Paengaroa,1,NZ,1556931425,68,-37.83,176.42,68.0,4.05
474,Clearwater,1,US,1556931310,83,27.97,-82.8,80.01,7.11
475,Strezhevoy,90,RU,1556929800,100,60.73,77.6,39.2,8.95
476,Ust-Koksa,52,RU,1556931454,80,50.27,85.62,26.46,3.44
477,Borovskoy,92,KZ,1556931454,45,53.8,64.15,47.93,14.83
478,Taltal,1,CL,1556931454,77,-25.41,-70.49,62.48,1.16
479,Torbay,90,CA,1556930910,89,47.66,-52.73,37.4,19.46
480,Leh,87,IN,1556931454,59,34.16,77.58,18.61,4.7
481,Auki,100,NG,1556931454,54,12.18,6.51,86.45,7.52
482,Glamsbjerg,40,DK,1556931395,80,55.27,10.1,39.2,10.29
483,Goya,96,AR,1556931455,92,-29.14,-59.27,73.67,2.82
484,Maravilha,73,BR,1556931455,97,-26.76,-53.17,69.89,3.56
485,Porto Nacional,87,BR,1556931455,74,-10.7,-48.41,79.13,2.17
486,Quzhou,35,CN,1556931456,50,28.97,118.86,65.18,4.25
487,Lukovetskiy,75,RU,1556929800,69,64.29,41.92,33.8,8.95
488,Kasane,0,BW,1556931456,56,-17.8,25.16,61.81,3.8
489,Namibe,22,AO,1556931456,79,-15.19,12.15,72.32,5.35
490,San Luis,90,AR,1556931435,78,-33.3,-66.34,66.0,12.62
491,Rayachoti,99,IN,1556931457,44,14.06,78.75,82.13,7.61
492,Christchurch,41,NZ,1556931184,72,-43.53,172.64,73.0,9.17
493,Rocha,11,UY,1556931457,94,-34.48,-54.34,57.11,3.42
494,Vitim,89,RU,1556931457,70,59.44,112.57,33.98,9.22
495,Belaya Gora,100,RU,1556931458,97,68.54,146.19,31.72,1.99
496,Talcahuano,90,CL,1556928000,100,-36.72,-73.12,57.2,10.29
497,Lasa,0,CY,1556929800,87,34.92,32.53,60.8,8.05
498,Berezovyy,100,RU,1556931458,46,51.67,135.7,52.25,3.33
499,Geraldton,75,CA,1556928000,49,49.72,-86.95,46.4,4.7
500,Irtyshskiy,70,RU,1556931459,85,58.33,68.13,46.13,9.35
501,Mahibadhoo,100,MV,1556931459,75,3.78,72.97,84.64,9.4
502,Katete,100,UG,1556931459,83,-0.78,29.75,64.62,2.48
503,Rena,49,NO,1556930028,81,61.13,11.37,27.0,8.14
504,Cap Malheureux,75,MU,1556931241,83,-19.98,57.61,73.4,14.99
505,Acajutla,0,SV,1556926230,71,13.59,-89.83,82.99,5.48
506,Omsukchan,92,RU,1556931459,100,62.53,155.8,29.59,2.98
507,Saint-Leu,90,RE,1556930825,61,-21.15,55.28,77.0,16.11
508,Havelock,20,US,1556931222,83,34.88,-76.9,75.2,9.17
509,Ola,3,RU,1556931460,57,59.58,151.3,37.71,12.86
510,Lorengau,100,PG,1556931460,92,-2.02,147.27,77.96,10.71
511,Klaksvik,77,FO,1556931000,69,62.23,-6.59,35.6,19.46
512,Cockburn Town,51,TC,1556931245,80,21.46,-71.14,79.61,21.43
513,Moron,52,VE,1556931461,86,10.49,-68.2,77.36,4.94
514,Mayo,75,CA,1556928000,14,63.59,-135.9,41.0,4.7
515,Buloh Kasap,75,MY,1556928000,88,2.55,102.76,78.8,0.76
516,Kainan,0,JP,1556929800,59,34.15,135.21,71.6,5.82
517,Dongsheng,98,CN,1556931461,47,29.72,112.52,73.13,1.88
518,Buraydah,40,SA,1556928000,94,26.33,43.97,69.8,6.93
519,Pontiac,90,US,1556931172,76,42.64,-83.29,52.0,4.7
520,Severobaykalsk,7,RU,1556931462,80,55.65,109.32,18.99,3.44
521,Tucupita,77,VE,1556931462,66,9.06,-62.05,82.22,8.93
522,Knokke-Heist,100,BE,1556931317,87,51.33,3.33,45.0,9.17
523,Tabuk,17,PH,1556931462,66,17.41,121.44,74.43,0.02
524,Sur,0,OM,1556931463,28,22.57,59.53,83.68,7.18
525,Birao,76,CF,1556931463,31,10.3,22.78,87.52,1.72
526,Atbasar,12,KZ,1556931463,47,51.81,68.36,41.06,8.3
527,Mehamn,100,NO,1556931255,80,71.03,27.85,26.75,4.7
528,Gornopravdinsk,63,RU,1556931463,94,60.06,69.92,39.42,6.98
529,Nyurba,0,RU,1556931463,71,63.29,118.35,34.2,7.09
530,Maryborough,100,AU,1556931463,91,-25.54,152.7,70.72,5.44
531,Alizai,5,PK,1556928000,63,33.94,71.55,66.2,4.16
532,Adrar,0,DZ,1556928000,13,27.87,-0.29,75.2,5.82
533,Anadyr,0,RU,1556931187,74,64.73,177.51,35.6,11.18
534,Port Hawkesbury,75,CA,1556931359,60,45.62,-61.36,45.0,2.24
535,Udachnyy,90,RU,1556928000,68,66.42,112.4,28.4,8.95
536,Port Hedland,1,AU,1556929800,21,-20.31,118.58,82.4,16.11
537,Gat,75,SN,1556929800,88,14.69,-16.54,66.2,12.75
538,Kahului,75,US,1556931128,65,20.89,-156.47,82.4,14.99
539,San Patricio,20,PY,1556931465,90,-26.98,-56.83,74.68,3.56
540,Zhigansk,64,RU,1556931465,88,66.77,123.37,26.59,11.05
541,Giaveno,75,IT,1556931385,87,45.04,7.35,55.0,2.24
542,Fairbanks,90,US,1556931170,52,64.84,-147.72,44.01,9.17
543,Mahabaleshwar,56,IN,1556931466,89,17.92,73.66,68.78,1.9
544,Anloga,20,GH,1556928000,88,5.79,0.9,82.4,8.05
545,Libourne,0,FR,1556931429,87,44.91,-0.24,48.99,4.7
546,Yatou,100,CM,1556931466,79,3.63,9.81,84.31,9.37
547,Quang Ngai,35,VN,1556931466,64,15.12,108.8,82.33,1.74
548,Outjo,0,NA,1556928000,27,-20.11,16.16,66.2,3.36
549,Aberystwyth,28,GB,1556931020,83,52.41,-4.08,43.0,7.0
550,Buenos Aires,0,AR,1556931300,52,-34.61,-58.44,71.01,9.17
551,Severnyy-Kospashskiy,99,RU,1556930421,99,59.09,57.8,44.01,3.0
552,Gilgit,11,PK,1556931468,72,35.92,74.31,24.53,1.88
553,Smithers,75,CA,1556928000,44,54.78,-127.17,57.2,17.22
554,Tilichiki,31,RU,1556931468,57,60.47,166.1,38.9,11.14
555,Souillac,0,FR,1556931429,87,45.6,-0.6,48.99,5.82
556,San Martin,1,US,1556931367,24,37.08,-121.61,78.8,12.75
557,Harrison,90,US,1556931363,82,39.26,-84.82,68.0,8.05
558,La Peca,55,PE,1556931469,58,-5.61,-78.44,71.5,2.19
559,Benjamin Constant,40,BR,1556928000,100,-4.38,-70.03,78.8,1.3
560,Letlhakane,0,BW,1556931469,36,-21.42,25.59,64.35,6.85
561,Kandi,99,BJ,1556931469,48,11.13,2.93,90.2,6.31
562,Dubbo,0,AU,1556928000,51,-32.25,148.6,62.6,12.75
